[{"name":"Palace of Culture","address":"Bulevardul Ștefan cel Mare și Sfânt 1, Iași 700028, Romania","lat":47.1574351,"lng":27.586461},{"name":"Copou Park","address":"Bulevardul Carol I nr. 31, Iași 700462, Romania","lat":47.1788309,"lng":27.5676504},{"name":"Anastasie Fătu Botanical Garden","address":"Strada Dumbrava Roșie nr. 7-9, Iași 700487, Romania","lat":47.1865608,"lng":27.5567697},{"name":"Lookout Point over Iasi","address":"DJ248D, Iași 707035, Romania","lat":47.0892766,"lng":27.643371},{"name":"Union Square","address":"Piața Unirii 6, Iași, Romania","lat":47.1660358,"lng":27.5800123},{"name":"Casa Dosoftei","address":"Strada Anastasie Panu nr. 54, Iași 700019, Romania","lat":47.1590541,"lng":27.5867047},{"name":"Exhibition Parc","address":"Aleea Grigore Ghica Vodă, Iași, Romania","lat":47.1864564,"lng":27.5603442},{"name":"Golia Monastery","address":"Strada Cuza Vodă nr. 51, Iași 700040, Romania","lat":47.1648039,"lng":27.5893769},{"name":"Metropolitan Cathedral Iasi","address":"Bulevardul Ștefan cel Mare și Sfânt 16, Iași 700064, Romania","lat":47.1615274,"lng":27.5820172},{"name":"Lions' Obelisk","address":"Parcul Copou, Bulevardul Carol I nr. 31, Iași 700507, Romania","lat":47.1785278,"lng":27.5669078},{"name":"The Equestrian Statue of Stephen the Great","address":"Piața Palat 1, Iași 700259, Romania","lat":47.1578582,"lng":27.5866279},{"name":"Cetățuia Monastery","address":"Str. Cetățuia 2, Iași 707317, Romania","lat":47.13148109999999,"lng":27.5840212},{"name":"Mihai Eminescu museum","address":"Bulevardul Carol I, Iași, Romania","lat":47.1790467,"lng":27.5671007},{"name":"University Museum","address":"Strada Titu Maiorescu 12, Iași 700460, Romania","lat":47.176067,"lng":27.5682901},{"name":"Galata Monastery","address":"Strada Mănăstirii nr. 4, Iași 700616, Romania","lat":47.1463067,"lng":27.5694235},{"name":"Frumoasa Monastery","address":"Str. Radu Vodă 1, Iași, Romania","lat":47.1392611,"lng":27.5873806},{"name":"Statue of Mihai Eminescu","address":"Bulevardul Carol I 1, Iași 700506, Romania","lat":47.170359,"lng":27.5758905},{"name":"Biserica Sfântul Nicolae Domnesc","address":"Piața Palat, Iași 700028, Romania","lat":47.1588364,"lng":27.587244},{"name":"Million Luxury Games","address":"Iulius Mall, Bulevardul Tudor Vladimirescu, Iași 700259, Romania","lat":47.1546432,"lng":27.6062179},{"name":"Cărtureşti Iaşi","address":"Strada Palas 7A, Iași 700259, Romania","lat":47.1583268,"lng":27.5897913}]